[{"name":"Mini zoo","location":{"type":"Point","coordinates":[40.4731237545,-3.8748939808]}},{"name":"Tropi Fauna","location":{"type":"Point","coordinates":[40.089626,-3.875134]}},{"name":"Peluquer\u00eda Canina \"Lotta & Less\"","location":{"type":"Point","coordinates":[40.4504577972,-3.6883592606]}},{"name":"Can Cut Peluquer\u00eda Canina","location":{"type":"Point","coordinates":[40.3965751422,-3.7091415626]}},{"name":"Peluquer\u00eda Canina Peluditos","location":{"type":"Point","coordinates":[40.3923292515,-3.6934193898]}},{"name":"Water-dog Peluqueria Canina","location":{"type":"Point","coordinates":[40.481479,-3.660205]}},{"name":"Peluquer\u00eda canina Truka","location":{"type":"Point","coordinates":[40.3488893563,-3.813671819]}},{"name":"Nuka & Noa - Peluquer\u00eda Canina","location":{"type":"Point","coordinates":[40.5449827101,-3.6511194706]}},{"name":"peluquer\u00eda canina Daniela Vallejo","location":{"type":"Point","coordinates":[40.366642441,-3.5494575095]}},{"name":"Peluqueria canina la dehesa","location":{"type":"Point","coordinates":[40.5619911593,-3.6189332196]}},{"name":"Tula Peluqueria Canina","location":{"type":"Point","coordinates":[40.4887381619,-3.8920200583]}},{"name":"Peluquer\u00eda Canina Sandra","location":{"type":"Point","coordinates":[40.1902244873,-3.6772366692]}},{"name":"Peluqueria Canina Beverly Dogs Navalcarnero","location":{"type":"Point","coordinates":[40.2862350082,-4.0101224184]}},{"name":"Peluquer\u00eda canina Alaskan","location":{"type":"Point","coordinates":[40.6462714641,-3.9937152678]}},{"name":"Peluquer\u00eda Canina RM","location":{"type":"Point","coordinates":[40.6744992489,-4.0856452368]}},{"name":"Real F\u00e1brica de Tapices","location":{"type":"Point","coordinates":[40.406201512,-3.6820741325]}},{"name":"Veterinario Moncan","location":{"type":"Point","coordinates":[40.5051451114,-3.6983865594]}},{"name":"Tienda de Mascota El Corte Ingl\u00e9s","location":{"type":"Point","coordinates":[40.4180386627,-3.7037698078]}},{"name":"Cl\u00ednica veterinaria Hortaleza","location":{"type":"Point","coordinates":[40.4670292678,-3.6385345459]}},{"name":"Centro Veterinario Puerta de Toledo","location":{"type":"Point","coordinates":[40.4081931418,-3.7126701839]}},{"name":"Gattos Centro Veterinario","location":{"type":"Point","coordinates":[40.4180304857,-3.6787435286]}},{"name":"Kiwoko","location":{"type":"Point","coordinates":[40.4797492712,-3.7064643814]}},{"name":"IFEMA (Feria de Madrid)","location":{"type":"Point","coordinates":[40.4671688857,-3.6173947556]}},{"name":"Clinica Veterinaria Ciudad de los \u00c1ngeles","location":{"type":"Point","coordinates":[40.3603979104,-3.6958798378]}},{"name":"Clinica Veterinaria Zooplanet","location":{"type":"Point","coordinates":[40.4179653,-3.7056064]}},{"name":"Clinica Veterinaria Vel\u00e1zquez","location":{"type":"Point","coordinates":[40.4364545764,-3.683423996]}},{"name":"Clinica Veterinaria","location":{"type":"Point","coordinates":[40.4367249348,-3.6380269505]}},{"name":"Clinica Veterinaria Ciudad de los \u00c1ngeles","location":{"type":"Point","coordinates":[40.3603979104,-3.6958798378]}},{"name":"Kiwoko","location":{"type":"Point","coordinates":[40.3367134845,-3.5330948753]}},{"name":"Centro Veterinario Puerta de Toledo","location":{"type":"Point","coordinates":[40.4081931418,-3.7126701839]}},{"name":"Tienda de Mascota El Corte Ingl\u00e9s","location":{"type":"Point","coordinates":[40.4180386627,-3.7037698078]}},{"name":"Openvet","location":{"type":"Point","coordinates":[40.4726183019,-3.7279769371]}},{"name":"Cl\u00ednica Fisioplus","location":{"type":"Point","coordinates":[40.4289659432,-3.7078642845]}},{"name":"Centro Veterinario Puerta de Toledo","location":{"type":"Point","coordinates":[40.4081931418,-3.7126701839]}},{"name":"Petuluku","location":{"type":"Point","coordinates":[40.4533554321,-3.8715579548]}},{"name":"Cl\u00ednica Veterinaria Malasa\u00f1a","location":{"type":"Point","coordinates":[40.4285382687,-3.7027490406]}},{"name":"CLINICA VETERINARIA CHISPEROS","location":{"type":"Point","coordinates":[40.43087462,-3.69851736]}},{"name":"Centro Veterinario Los Sauces","location":{"type":"Point","coordinates":[40.434122136,-3.698441605]}},{"name":"Cl\u00ednica Veterinaria Quevedog","location":{"type":"Point","coordinates":[40.4350908417,-3.7075960636]}},{"name":"Exovet Clinica Veterinaria","location":{"type":"Point","coordinates":[40.4252227516,-3.7152096779]}},{"name":"Clinica Veterinaria Zooplanet","location":{"type":"Point","coordinates":[40.4179653,-3.7056064]}},{"name":"Veterinaria Alonso Cano","location":{"type":"Point","coordinates":[40.4374783593,-3.6976504681]}},{"name":"Cl\u00ednica Veterinaria Can Contento","location":{"type":"Point","coordinates":[40.410297,-3.701862]}},{"name":"Hospital Veterinario Retiro","location":{"type":"Point","coordinates":[40.421111682,-3.679717359]}},{"name":"Clinica Veterinaria","location":{"type":"Point","coordinates":[40.4298495976,-3.6742650618]}},{"name":"Clinicanimal","location":{"type":"Point","coordinates":[40.443338,-3.674979]}},{"name":"Centro Veterinario Tellez","location":{"type":"Point","coordinates":[40.4040038757,-3.6833583761]}},{"name":"Centro Veterinario Blanco & Negro","location":{"type":"Point","coordinates":[40.455424594,-3.696149237]}},{"name":"Cl\u00ednica Veterinaria Dog And Cat","location":{"type":"Point","coordinates":[40.46356344,-3.68876982]}},{"name":"Aservet Sanidad Animal","location":{"type":"Point","coordinates":[40.45165886,-3.74341794]}},{"name":"Centro Veterinario Avenida Ram\u00f3n Y Cajal","location":{"type":"Point","coordinates":[40.4545432124,-3.6605736989]}},{"name":"Cl\u00ednica Veterinaria Aar\u00f3n","location":{"type":"Point","coordinates":[40.469938238,-3.686338784]}},{"name":"Clinica Veterinaria Pe\u00f1agrande","location":{"type":"Point","coordinates":[40.4748418923,-3.7276398213]}},{"name":"Veterinario Ginzo de Limia","location":{"type":"Point","coordinates":[40.4781290502,-3.7038946152]}},{"name":"Cl\u00ednica Veterinaria Sirkan","location":{"type":"Point","coordinates":[40.38117311,-3.74796569]}},{"name":"Animalandia","location":{"type":"Point","coordinates":[40.4043524,-3.6060709]}},{"name":"Cl\u00ednica Veterinaria Legan\u00e9s Norte","location":{"type":"Point","coordinates":[40.3429133,-3.7483169]}},{"name":"Clinica Veterinaria El Ensanche","location":{"type":"Point","coordinates":[40.3613753934,-3.5954475403]}},{"name":"Centro Veterinario Valdelasfuentes","location":{"type":"Point","coordinates":[40.552526,-3.636101]}},{"name":"CENTRO VETERINARIO PRADO DE BOADILLA","location":{"type":"Point","coordinates":[40.4057971247,-3.8839834173]}},{"name":"Vetsia","location":{"type":"Point","coordinates":[40.3109875371,-3.8046385998]}},{"name":"Cl\u00ednica Veterinaria Fox S.l.","location":{"type":"Point","coordinates":[40.491734963,-3.868038221]}},{"name":"Clinica Veterinaria Los Parques","location":{"type":"Point","coordinates":[40.2893037667,-3.7506531004]}},{"name":"CEVETS. CENTRO DE FORMACION VETERINARIA","location":{"type":"Point","coordinates":[40.4370005,-3.6413155]}},{"name":"Zoosano","location":{"type":"Point","coordinates":[40.39202531,-3.75729149]}},{"name":"Cl\u00ednica Veterinaria Estoril","location":{"type":"Point","coordinates":[40.3272353716,-3.8592913869]}},{"name":"Hospital Veterinario Vetersalud Indra","location":{"type":"Point","coordinates":[40.290872,-3.802306]}},{"name":"Clinicanimal","location":{"type":"Point","coordinates":[40.566832,-3.609363]}},{"name":"Centro Veterinario Nuevo Versalles","location":{"type":"Point","coordinates":[40.2947922,-3.8328526]}},{"name":"Cl\u00ednica Veterinaria Perseo","location":{"type":"Point","coordinates":[40.30564208,-3.86517614]}},{"name":"Clinicanimal","location":{"type":"Point","coordinates":[40.457765,-3.470097]}},{"name":"Centro veterinario El Nido","location":{"type":"Point","coordinates":[40.2421812,-3.7766283]}},{"name":"Punto Pet Cl\u00ednica Veterinaria","location":{"type":"Point","coordinates":[40.2403095,-3.7683898]}},{"name":"HOSPITAL VETERINARIO VALDEMORO","location":{"type":"Point","coordinates":[40.1825193,-3.6815435]}},{"name":"Kiwoko. Mundo Animal","location":{"type":"Point","coordinates":[40.272144,-3.696122]}},{"name":"Cl\u00ednica Veterinaria Butrague\u00f1o","location":{"type":"Point","coordinates":[40.5179075678,-3.9235123252]}},{"name":"Centro Veterinario Villalba","location":{"type":"Point","coordinates":[40.628046889,-4.003708999]}},{"name":"Centro Veterinario Grandes Valles","location":{"type":"Point","coordinates":[40.6456814,-4.0380362]}},{"name":"Centro Veterinario-Fundaci\u00f3n Canadd Internacional","location":{"type":"Point","coordinates":[40.4878905,-3.3471076]}},{"name":"Cl\u00ednica Veterinaria Villaluenga","location":{"type":"Point","coordinates":[40.0282,-3.9131861]}},{"name":"Centro Veterinario Isvet","location":{"type":"Point","coordinates":[40.6683407,-3.1976286]}},{"name":"Veterinaria Arco Iris","location":{"type":"Point","coordinates":[40.4237427558,-3.7015176529]}},{"name":"Centro veterinario Amaniel","location":{"type":"Point","coordinates":[40.4261713,-3.7092593]}},{"name":"Vetpa Veterinarios","location":{"type":"Point","coordinates":[40.430823888,-3.7211814523]}},{"name":"Petuluku","location":{"type":"Point","coordinates":[40.4533554321,-3.8715579548]}},{"name":"Cl\u00ednica Veterinaria Malasa\u00f1a","location":{"type":"Point","coordinates":[40.4285382687,-3.7027490406]}},{"name":"Centro Veterinario Los Sauces","location":{"type":"Point","coordinates":[40.434122136,-3.698441605]}},{"name":"Exovet Clinica Veterinaria","location":{"type":"Point","coordinates":[40.4252227516,-3.7152096779]}},{"name":"Veterinaria Alonso Cano","location":{"type":"Point","coordinates":[40.4374783593,-3.6976504681]}},{"name":"Hospital Veterinario Retiro","location":{"type":"Point","coordinates":[40.421111682,-3.679717359]}},{"name":"Clinica Veterinaria","location":{"type":"Point","coordinates":[40.4298495976,-3.6742650618]}},{"name":"Clinicanimal","location":{"type":"Point","coordinates":[40.443338,-3.674979]}},{"name":"Centro Veterinario Tellez","location":{"type":"Point","coordinates":[40.4040038757,-3.6833583761]}},{"name":"Centro Veterinario Blanco & Negro","location":{"type":"Point","coordinates":[40.455424594,-3.696149237]}},{"name":"Cl\u00ednica Veterinaria Dog And Cat","location":{"type":"Point","coordinates":[40.46356344,-3.68876982]}},{"name":"Aservet Sanidad Animal","location":{"type":"Point","coordinates":[40.45165886,-3.74341794]}},{"name":"Centro Veterinario Avenida Ram\u00f3n Y Cajal","location":{"type":"Point","coordinates":[40.4545432124,-3.6605736989]}},{"name":"Cl\u00ednica Veterinaria Aar\u00f3n","location":{"type":"Point","coordinates":[40.469938238,-3.686338784]}},{"name":"Clinica Veterinaria Pe\u00f1agrande","location":{"type":"Point","coordinates":[40.4748418923,-3.7276398213]}},{"name":"Veterinario Ginzo de Limia","location":{"type":"Point","coordinates":[40.4781290502,-3.7038946152]}},{"name":"Cl\u00ednica Veterinaria Sirkan","location":{"type":"Point","coordinates":[40.38117311,-3.74796569]}},{"name":"Animalandia","location":{"type":"Point","coordinates":[40.4043524,-3.6060709]}},{"name":"Cl\u00ednica Veterinaria Legan\u00e9s Norte","location":{"type":"Point","coordinates":[40.3429133,-3.7483169]}},{"name":"Clinica Veterinaria El Ensanche","location":{"type":"Point","coordinates":[40.3613753934,-3.5954475403]}},{"name":"Centro Veterinario Valdelasfuentes","location":{"type":"Point","coordinates":[40.552526,-3.636101]}},{"name":"CENTRO VETERINARIO PRADO DE BOADILLA","location":{"type":"Point","coordinates":[40.4057971247,-3.8839834173]}},{"name":"Vetsia","location":{"type":"Point","coordinates":[40.3109875371,-3.8046385998]}},{"name":"Cl\u00ednica Veterinaria Fox S.l.","location":{"type":"Point","coordinates":[40.491734963,-3.868038221]}},{"name":"Clinica Veterinaria Los Parques","location":{"type":"Point","coordinates":[40.2893037667,-3.7506531004]}},{"name":"Cl\u00ednica Veterinaria Estoril","location":{"type":"Point","coordinates":[40.3272353716,-3.8592913869]}},{"name":"Hospital Veterinario Vetersalud Indra","location":{"type":"Point","coordinates":[40.290872,-3.802306]}},{"name":"Clinicanimal","location":{"type":"Point","coordinates":[40.566832,-3.609363]}},{"name":"Centro Veterinario Nuevo Versalles","location":{"type":"Point","coordinates":[40.2947922,-3.8328526]}},{"name":"Cl\u00ednica Veterinaria Perseo","location":{"type":"Point","coordinates":[40.30564208,-3.86517614]}},{"name":"Clinicanimal","location":{"type":"Point","coordinates":[40.457765,-3.470097]}},{"name":"Centro veterinario El Nido","location":{"type":"Point","coordinates":[40.2421812,-3.7766283]}},{"name":"Punto Pet Cl\u00ednica Veterinaria","location":{"type":"Point","coordinates":[40.2403095,-3.7683898]}},{"name":"CEVETS. CENTRO DE FORMACION VETERINARIA","location":{"type":"Point","coordinates":[40.4370005,-3.6413155]}},{"name":"Zoosano","location":{"type":"Point","coordinates":[40.39202531,-3.75729149]}},{"name":"HOSPITAL VETERINARIO VALDEMORO","location":{"type":"Point","coordinates":[40.1825193,-3.6815435]}},{"name":"Centro Veterinario Villalba","location":{"type":"Point","coordinates":[40.628046889,-4.003708999]}},{"name":"Kiwoko. Mundo Animal","location":{"type":"Point","coordinates":[40.272144,-3.696122]}},{"name":"Centro Veterinario Grandes Valles","location":{"type":"Point","coordinates":[40.6456814,-4.0380362]}},{"name":"Cl\u00ednica Veterinaria Butrague\u00f1o","location":{"type":"Point","coordinates":[40.5179075678,-3.9235123252]}},{"name":"Cl\u00ednica Veterinaria Villaluenga","location":{"type":"Point","coordinates":[40.0282,-3.9131861]}},{"name":"Centro Veterinario-Fundaci\u00f3n Canadd Internacional","location":{"type":"Point","coordinates":[40.4878905,-3.3471076]}},{"name":"Centro Veterinario Isvet","location":{"type":"Point","coordinates":[40.6683407,-3.1976286]}}]